"","index","airport","city","country","IATA","ICAO","latitude","longitude","altitude","timezone","DST","tz_database","type","source"
"315",317,"Bautzen Airport","Bautzen","Germany","\N","EDAB",51.1936111450195,14.5197219848633,568,"1","E","Europe/Berlin","airport","OurAirports"
"316",318,"Altenburg-Nobitz Airport","Altenburg","Germany","AOC","EDAC",50.9819450378418,12.5063886642456,640,"1","E","Europe/Berlin","airport","OurAirports"
"317",319,"Dessau Airport","Dessau","Germany","\N","EDAD",51.831693541,12.1909618378,187,"1","E","Europe/Berlin","airport","OurAirports"
"318",320,"Eisenhüttenstadt Airport","Eisenhuettenstadt","Germany","\N","EDAE",52.195856,14.58753,144,"1","E","Europe/Berlin","airport","OurAirports"
"319",322,"Großenhain Airport","Suhl","Germany","\N","EDAK",51.3080558776855,13.5555562973022,417,"1","E","Europe/Berlin","airport","OurAirports"
"320",323,"Merseburg Airport","Muehlhausen","Germany","\N","EDAM",51.3630556,11.9408333,341,"1","E","Europe/Berlin","airport","OurAirports"
"321",324,"Halle-Oppin Airport","Halle","Germany","\N","EDAQ",51.552223,12.053889,348,"1","E","Europe/Berlin","airport","OurAirports"
"322",325,"Riesa-Göhlis Airport","Riesa","Germany","\N","EDAU",51.2936096191,13.3561105728,322,"1","E","Europe/Berlin","airport","OurAirports"
"323",326,"Rechlin-Lärz Airport","Rechlin-laerz","Germany","\N","EDAX",53.306388855,12.7522220612,220,"1","E","Europe/Berlin","airport","OurAirports"
"324",327,"Strausberg Airport","Strausberg","Germany","\N","EDAY",52.5805549621582,13.9166669845581,262,"1","E","Europe/Berlin","airport","OurAirports"
"325",328,"Schönhagen Airport","Schoenhagen","Germany","\N","EDAZ",52.2036094666,13.1563892365,131,"1","E","Europe/Berlin","airport","OurAirports"
"326",329,"Barth Airport","Barth","Germany","BBH","EDBH",54.338253,12.710515,23,"1","E","Europe/Berlin","airport","OurAirports"
"327",330,"Jena-Schöngleina Airport","Jena","Germany","\N","EDBJ",50.9152793884277,11.7144441604614,1247,"1","E","Europe/Berlin","airport","OurAirports"
"328",331,"Kyritz Airport","Kyritz","Germany","\N","EDBK",52.918888092041,12.4252777099609,131,"1","E","Europe/Berlin","airport","OurAirports"
"329",332,"Magdeburg \City\ Airport","Magdeburg","Germany","\N","EDBM",52.073612,11.626389,259,"1","E","Europe/Berlin","airport","OurAirports"
"330",333,"Rothenburg/Görlitz Airport","Rothenburg/ol","Germany","\N","EDBR",51.3633346557617,14.9499998092651,518,"1","E","Europe/Berlin","airport","OurAirports"
"331",334,"Anklam Airport","Anklam","Germany","\N","EDCA",53.8327789306641,13.6686105728149,16,"1","E","Europe/Berlin","airport","OurAirports"
"332",335,"Cottbus-Drewitz Airport","Cottbus","Germany","\N","EDCD",51.889442,14.531944,272,"1","E","Europe/Berlin","airport","OurAirports"
"333",336,"Kamenz Airport","Kamenz","Germany","\N","EDCM",51.2969436645508,14.1274995803833,495,"1","E","Europe/Berlin","airport","OurAirports"
"334",337,"Berlin-Schönefeld International Airport","Berlin","Germany","SXF","EDDB",52.380001068115,13.522500038147,157,"1","E","Europe/Berlin","airport","OurAirports"
"335",338,"Dresden Airport","Dresden","Germany","DRS","EDDC",51.1328010559082,13.7672004699707,755,"1","E","Europe/Berlin","airport","OurAirports"
"336",339,"Erfurt Airport","Erfurt","Germany","ERF","EDDE",50.9798011779785,10.9581003189087,1036,"1","E","Europe/Berlin","airport","OurAirports"
"337",340,"Frankfurt am Main International Airport","Frankfurt","Germany","FRA","EDDF",50.0333333,8.5705556,364,"1","E","Europe/Berlin","airport","OurAirports"
"338",341,"Münster Osnabrück Airport","Munster","Germany","FMO","EDDG",52.134601593,7.68483018875,160,"1","E","Europe/Berlin","airport","OurAirports"
"339",342,"Hamburg Airport","Hamburg","Germany","HAM","EDDH",53.630401611328,9.9882297515869,53,"1","E","Europe/Berlin","airport","OurAirports"
"340",343,"Berlin-Tempelhof International Airport","Berlin","Germany","THF","EDDI",52.4729995727539,13.4039001464844,167,"1","E","Europe/Berlin","airport","OurAirports"
"341",344,"Cologne Bonn Airport","Cologne","Germany","CGN","EDDK",50.8658981323,7.1427397728,302,"1","E","Europe/Berlin","airport","OurAirports"
"342",345,"Düsseldorf International Airport","Duesseldorf","Germany","DUS","EDDL",51.2895011901855,6.76677989959717,147,"1","E","Europe/Berlin","airport","OurAirports"
"343",346,"Munich International Airport","Munich","Germany","MUC","EDDM",48.353801727295,11.786100387573,1487,"1","E","Europe/Berlin","airport","OurAirports"
"344",347,"Nuremberg Airport","Nuernberg","Germany","NUE","EDDN",49.498699,11.0780556,1046,"1","E","Europe/Berlin","airport","OurAirports"
"345",348,"Leipzig Halle Airport","Leipzig","Germany","LEJ","EDDP",51.4238889,12.2363889,465,"1","E","Europe/Berlin","airport","OurAirports"
"346",349,"Saarbrücken Airport","Saarbruecken","Germany","SCN","EDDR",49.2145996094,7.10950994492,1058,"1","E","Europe/Berlin","airport","OurAirports"
"347",350,"Stuttgart Airport","Stuttgart","Germany","STR","EDDS",48.6898994446,9.22196006775,1276,"1","E","Europe/Berlin","airport","OurAirports"
"348",351,"Berlin-Tegel International Airport","Berlin","Germany","TXL","EDDT",52.5597000122,13.2876996994,122,"1","E","Europe/Berlin","airport","OurAirports"
"349",352,"Hannover Airport","Hannover","Germany","HAJ","EDDV",52.461101532,9.68507957458,183,"1","E","Europe/Berlin","airport","OurAirports"
"350",353,"Bremen Airport","Bremen","Germany","BRE","EDDW",53.0475006104,8.78666973114,14,"1","E","Europe/Berlin","airport","OurAirports"
"351",354,"Frankfurt-Egelsbach Airport","Egelsbach","Germany","QEF","EDFE",49.9599990844727,8.64583301544189,384,"1","E","Europe/Berlin","airport","OurAirports"
"352",355,"Frankfurt-Hahn Airport","Hahn","Germany","HHN","EDFH",49.9486999512,7.26388978958,1649,"1","E","Europe/Berlin","airport","OurAirports"
"353",356,"Mannheim-City Airport","Mannheim","Germany","MHG","EDFM",49.4730567932129,8.51416683197021,308,"1","E","Europe/Berlin","airport","OurAirports"
"354",357,"Allendorf/Eder Airport","Allendorf","Germany","\N","EDFQ",51.0349998474121,8.680832862854,1158,"1","E","Europe/Berlin","airport","OurAirports"
"355",358,"Worms Airport","Worms","Germany","\N","EDFV",49.606945,8.368333,295,"1","E","Europe/Berlin","airport","OurAirports"
"356",359,"Mainz-Finthen Airport","Mainz","Germany","\N","EDFZ",49.967499,8.147222,525,"1","E","Europe/Berlin","airport","OurAirports"
"357",360,"Eisenach-Kindel Airport","Eisenach","Germany","\N","EDGE",50.991604,10.47973,1112,"1","E","Europe/Berlin","airport","OurAirports"
"358",361,"Siegerland Airport","Siegerland","Germany","\N","EDGS",50.7076988220215,8.08296966552734,1966,"1","E","Europe/Berlin","airport","OurAirports"
"359",362,"Hamburg-Finkenwerder Airport","Hamburg","Germany","XFW","EDHI",53.5352783203125,9.83555603027344,23,"1","E","Europe/Berlin","airport","OurAirports"
"360",363,"Kiel-Holtenau Airport","Kiel","Germany","KEL","EDHK",54.3794441223145,10.1452779769897,102,"1","E","Europe/Berlin","airport","OurAirports"
"361",364,"Lübeck Blankensee Airport","Luebeck","Germany","LBC","EDHL",53.8054008484,10.7192001343,53,"1","E","Europe/Berlin","airport","OurAirports"
"362",365,"Flugplatz Dahlemer Binz","Dahlemer Binz","Germany","\N","EDKV",50.405555725,6.5288891792,1896,"1","E","Europe/Berlin","airport","OurAirports"
"363",366,"Meinerzhagen Airport","Meinerzhagen","Germany","\N","EDKZ",51.0999984741211,7.59999990463257,1549,"1","E","Europe/Berlin","airport","OurAirports"
"364",367,"Arnsberg-Menden Airport","Arnsberg","Germany","ZCA","EDLA",51.4838905334473,7.89833307266235,794,"1","E","Europe/Berlin","airport","OurAirports"
"365",368,"Essen Mulheim Airport","Essen","Germany","ESS","EDLE",51.4023017883301,6.93732976913452,424,"1","E","Europe/Berlin","airport","OurAirports"
"366",369,"Bielefeld Airport","Bielefeld","Germany","\N","EDLI",51.9647216797,8.54444408417,433,"1","E","Europe/Berlin","airport","OurAirports"
"367",370,"Mönchengladbach Airport","Moenchengladbach","Germany","MGL","EDLN",51.2302780151367,6.50444412231445,125,"1","E","Europe/Berlin","airport","OurAirports"
"368",371,"Paderborn Lippstadt Airport","Paderborn","Germany","PAD","EDLP",51.6141014099,8.61631965637,699,"1","E","Europe/Berlin","airport","OurAirports"
"369",372,"Stadtlohn-Vreden Airport","Stadtlohn","Germany","\N","EDLS",51.9958343505859,6.84055614471436,157,"1","E","Europe/Berlin","airport","OurAirports"
"370",373,"Dortmund Airport","Dortmund","Germany","DTM","EDLW",51.5182991028,7.61223983765,425,"1","E","Europe/Berlin","airport","OurAirports"
"371",374,"Augsburg Airport","Augsburg","Germany","AGB","EDMA",48.425278,10.931667,1516,"1","E","Europe/Berlin","airport","OurAirports"
"372",375,"Biberach a.d. Riß Airport","Biberach","Germany","\N","EDMB",48.1111106872559,9.76277828216553,1903,"1","E","Europe/Berlin","airport","OurAirports"
"373",376,"Eggenfelden Airport","Eggenfelden","Germany","\N","EDME",48.396110534668,12.7236108779907,1342,"1","E","Europe/Berlin","airport","OurAirports"
"374",377,"Mindelheim-Mattsies Airport","Mindelheim","Germany","\N","EDMN",48.1069450378418,10.5249996185303,1857,"1","E","Europe/Berlin","airport","OurAirports"
"375",378,"Oberpfaffenhofen Airport","Oberpfaffenhofen","Germany","OBF","EDMO",48.0814018249512,11.2831001281738,1947,"1","E","Europe/Berlin","airport","OurAirports"
"376",379,"Straubing Airport","Straubing","Germany","RBM","EDMS",48.9008331298828,12.5166673660278,1047,"1","E","Europe/Berlin","airport","OurAirports"
"377",380,"Vilshofen Airport","Vilshofen","Germany","\N","EDMV",48.6349983215332,13.1955556869507,991,"1","E","Europe/Berlin","airport","OurAirports"
"378",381,"Leutkirch-Unterzeil Airport","Leutkirch","Germany","\N","EDNL",47.8588905334473,10.0141668319702,2100,"1","E","Europe/Berlin","airport","OurAirports"
"379",382,"Friedrichshafen Airport","Friedrichshafen","Germany","FDH","EDNY",47.6712989807,9.51148986816,1367,"1","E","Europe/Berlin","airport","OurAirports"
"380",383,"Schwerin Parchim Airport","Parchim","Germany","SZW","EDOP",53.426998,11.7834,166,"1","E","Europe/Berlin","airport","OurAirports"
"381",384,"Stendal-Borstel Airport","Stendal","Germany","ZSN","EDOV",52.6288871765137,11.8186111450195,184,"1","E","Europe/Berlin","airport","OurAirports"
"382",385,"Aalen-Heidenheim/Elchingen Airport","Aalen-heidenheim","Germany","\N","EDPA",48.7777786254883,10.2647218704224,1916,"1","E","Europe/Berlin","airport","OurAirports"
"383",386,"Bayreuth Airport","Bayreuth","Germany","BYU","EDQD",49.9850006103516,11.6400003433228,1601,"1","E","Europe/Berlin","airport","OurAirports"
"384",387,"Burg Feuerstein Airport","Burg Feuerstein","Germany","\N","EDQE",49.794166564941,11.133610725403,1673,"1","E","Europe/Berlin","airport","OurAirports"
"385",388,"Hof-Plauen Airport","Hof","Germany","HOQ","EDQM",50.2886123657227,11.8563890457153,1959,"1","E","Europe/Berlin","airport","OurAirports"
"386",389,"Haßfurt-Schweinfurt Airport","Hassfurt","Germany","\N","EDQT",50.0180549621582,10.5294437408447,719,"1","E","Europe/Berlin","airport","OurAirports"
"387",390,"Koblenz-Winningen Airport","Koblenz","Germany","ZNV","EDRK",50.3255577087402,7.5286111831665,640,"1","E","Europe/Berlin","airport","OurAirports"
"388",391,"Trier-Föhren Airport","Trier","Germany","ZQF","EDRT",49.8638877868652,6.78749990463257,666,"1","E","Europe/Berlin","airport","OurAirports"
"389",392,"Speyer Airport","Speyer","Germany","ZQC","EDRY",49.3047218322754,8.45138931274414,312,"1","E","Europe/Berlin","airport","OurAirports"
"390",393,"Zweibrücken Airport","Zweibruecken","Germany","ZQW","EDRZ",49.209400177002,7.40055990219116,1132,"1","E","Europe/Berlin","airport","OurAirports"
"391",394,"Donaueschingen-Villingen Airport","Donaueschingen","Germany","ZQL","EDTD",47.9733314514,8.52222156525,2231,"1","E","Europe/Berlin","airport","OurAirports"
"392",395,"Freiburg i. Br. Airport","Freiburg","Germany","\N","EDTF",48.0227775574,7.83249998093,801,"1","E","Europe/Berlin","airport","OurAirports"
"393",396,"Mengen-Hohentengen Airport","Mengen","Germany","\N","EDTM",48.0538902282715,9.37277793884277,1818,"1","E","Europe/Berlin","airport","OurAirports"
"394",397,"Adolf Würth Airport","Schwaebisch Hall","Germany","\N","EDTY",49.1183319092,9.78388881683,1299,"1","E","Europe/Berlin","airport","OurAirports"
"395",398,"Finsterwalde/Schacksdorf Airport","Soest","Germany","\N","EDUS",51.607498,13.743611,384,"1","E","Europe/Berlin","airport","OurAirports"
"396",399,"Braunschweig Wolfsburg Airport","Braunschweig","Germany","BWE","EDVE",52.319199,10.5561,295,"1","E","Europe/Berlin","airport","OurAirports"
"397",400,"Kassel-Calden Airport","Kassel","Germany","KSF","EDVK",51.417273,9.384967,820,"1","E","Europe/Berlin","airport","OurAirports"
"398",401,"Hildesheim Airport","Hildesheim","Germany","\N","EDVM",52.1813888549805,9.94638919830322,292,"1","E","Europe/Berlin","airport","OurAirports"
"399",402,"Bremerhaven Airport","Bremerhaven","Germany","BRV","EDWB",53.506943,8.572778,10,"1","E","Europe/Berlin","airport","OurAirports"
"400",403,"Emden Airport","Emden","Germany","EME","EDWE",53.3911094665527,7.22749996185303,3,"1","E","Europe/Berlin","airport","OurAirports"
"401",404,"Leer-Papenburg Airport","Leer","Germany","\N","EDWF",53.2719421386719,7.44166707992554,3,"1","E","Europe/Berlin","airport","OurAirports"
"402",405,"Wilhelmshaven-Mariensiel Airport","Wilhelmshaven","Germany","WVN","EDWI",53.5022201538086,8.05222225189209,16,"1","E","Europe/Berlin","airport","OurAirports"
"403",406,"Borkum Airport","Borkum","Germany","BMK","EDWR",53.5963897705,6.70916700363,3,"1","E","Europe/Berlin","airport","OurAirports"
"404",407,"Norderney Airport","Norderney","Germany","NRD","EDWY",53.7069435119629,7.23000001907349,7,"1","E","Europe/Berlin","airport","OurAirports"
"405",408,"Flensburg-Schäferhaus Airport","Flensburg","Germany","FLF","EDXF",54.7733345031738,9.3788890838623,131,"1","E","Europe/Berlin","airport","OurAirports"
"406",409,"Rendsburg-Schachtholm Airport","Rendsburg","Germany","\N","EDXR",54.2200012207031,9.59944438934326,23,"1","E","Europe/Berlin","airport","OurAirports"
"407",410,"Westerland Sylt Airport","Westerland","Germany","GWT","EDXW",54.9132003784,8.34047031403,51,"1","E","Europe/Berlin","airport","OurAirports"
"736",750,"Spangdahlem Air Base","Spangdahlem","Germany","SPM","ETAD",49.9726982117,6.69250011444,1197,"1","E","Europe/Berlin","airport","OurAirports"
"737",751,"Ramstein Air Base","Ramstein","Germany","RMS","ETAR",49.4369010925293,7.60027980804443,776,"1","E","Europe/Berlin","airport","OurAirports"
"738",753,"[Duplicate] Giebelstadt Army Air Field","Giebelstadt","Germany","GHF","ETEU",49.6481018066,9.96648979187,980,"1","E","Europe/Berlin","airport","OurAirports"
"739",754,"Bückeburg Air Base","Brueckeburg","Germany","\N","ETHB",52.2785,9.08217,230,"1","E","Europe/Berlin","airport","OurAirports"
"740",755,"Celle Airport","Celle","Germany","ZCN","ETHC",52.5912017822266,10.0221004486084,129,"1","E","Europe/Berlin","airport","OurAirports"
"741",756,"Rheine Bentlage Air Base","Rheine-brentlange","Germany","\N","ETHE",52.291199,7.387,129,"1","E","Europe/Berlin","airport","OurAirports"
"742",757,"Fritzlar Airport","Fritzlar","Germany","\N","ETHF",51.1146,9.286,1345,"1","E","Europe/Berlin","airport","OurAirports"
"743",758,"Laupheim Air Base","Laupheim","Germany","\N","ETHL",48.220299,9.91002,1766,"1","E","Europe/Berlin","airport","OurAirports"
"744",759,"Mendig Airport","Mendig","Germany","\N","ETHM",50.3660011292,7.31533002853,597,"1","E","Europe/Berlin","airport","OurAirports"
"745",760,"Niederstetten Army Air Base","Niederstetten","Germany","\N","ETHN",49.391945,9.958889,1339,"1","E","Europe/Berlin","airport","OurAirports"
"746",761,"Roth Airport","Roth","Germany","\N","ETHR",49.2174987792969,11.1001996994019,1268,"1","E","Europe/Berlin","airport","OurAirports"
"747",762,"Fassberg Air Base","Fassberg","Germany","\N","ETHS",52.919399,10.185827,245,"1","E","Europe/Berlin","airport","OurAirports"
"748",763,"Grafenwohr Army Air Field","Grafenwoehr","Germany","\N","ETIC",49.6986999511719,11.9401998519897,1363,"1","E","Europe/Berlin","airport","OurAirports"
"749",764,"Hanau Army Air Field","Hanau","Germany","ZNF","ETID",50.169201,8.96159,368,"1","E","Europe/Berlin","airport","OurAirports"
"750",765,"Hohenfels Army Air Field","Hohenfels","Germany","\N","ETIH",49.2181015014648,11.8360996246338,1455,"1","E","Europe/Berlin","airport","OurAirports"
"751",766,"Kitzingen Army Air Field","Kitzingen","Germany","\N","ETIN",49.7430992126465,10.2005996704102,689,"1","E","Europe/Berlin","airport","OurAirports"
"752",767,"Nordholz Naval Airbase","Nordholz","Germany","\N","ETMN",53.7677001953,8.65849971771,74,"1","E","Europe/Berlin","airport","OurAirports"
"753",768,"Diepholz Air Base","Diepholz","Germany","\N","ETND",52.585556,8.342222,128,"1","E","Europe/Berlin","airport","OurAirports"
"754",769,"Geilenkirchen Air Base","Geilenkirchen","Germany","GKE","ETNG",50.9608,6.04242,296,"1","E","Europe/Berlin","airport","OurAirports"
"755",770,"Hohn Airport","Hohn","Germany","\N","ETNH",54.312198638916,9.53816986083984,39,"1","E","Europe/Berlin","airport","OurAirports"
"756",771,"Jever Air Base","Jever","Germany","\N","ETNJ",53.533501,7.88867,24,"1","E","Europe/Berlin","airport","OurAirports"
"757",772,"Rostock-Laage Airport","Laage","Germany","RLG","ETNL",53.9182014465,12.2783002853,138,"1","E","Europe/Berlin","airport","OurAirports"
"758",773,"Nörvenich Air Base","Noervenich","Germany","\N","ETNN",50.8312,6.65817,386,"1","E","Europe/Berlin","airport","OurAirports"
"759",774,"Schleswig Air Base","Schleswig","Germany","\N","ETNS",54.459301,9.51633,70,"1","E","Europe/Berlin","airport","OurAirports"
"760",775,"Wittmundhafen Airport","Wittmundhafen","Germany","\N","ETNT",53.5477981567383,7.66732978820801,26,"1","E","Europe/Berlin","airport","OurAirports"
"761",777,"Wunstorf Air Base","Wunstorf","Germany","\N","ETNW",52.457298,9.42717,187,"1","E","Europe/Berlin","airport","OurAirports"
"762",778,"Vilseck Army Air Field","Vilseck","Germany","\N","ETOI",49.6335983276367,11.7672004699707,1353,"1","E","Europe/Berlin","airport","OurAirports"
"763",779,"Coleman Army Air Field","Coleman","Germany","\N","ETOR",49.5635986328125,8.4633903503418,309,"1","E","Europe/Berlin","airport","OurAirports"
"764",780,"Wiesbaden Army Airfield","Wiesbaden","Germany","\N","ETOU",50.0498008728027,8.32540035247803,461,"1","E","Europe/Berlin","airport","OurAirports"
"765",781,"Landsberg Lech Air Base","Landsberg","Germany","\N","ETSA",48.070599,10.906,2044,"1","E","Europe/Berlin","airport","OurAirports"
"766",782,"Büchel Air Base","Buechel","Germany","\N","ETSB",50.1738014221,7.06333017349,1568,"1","E","Europe/Berlin","airport","OurAirports"
"767",783,"Erding Airport","Erding","Germany","\N","ETSE",48.3222999572754,11.9486999511719,1515,"1","E","Europe/Berlin","airport","OurAirports"
"768",784,"Fürstenfeldbruck Airport","Fuerstenfeldbruck","Germany","FEL","ETSF",48.2055549621582,11.2669439315796,1703,"1","E","Europe/Berlin","airport","OurAirports"
"769",785,"Holzdorf Air Base","Holzdorf","Germany","\N","ETSH",51.767799,13.1677,265,"1","E","Europe/Berlin","airport","OurAirports"
"770",786,"Ingolstadt Manching Airport","Ingolstadt","Germany","IGS","ETSI",48.7156982421875,11.5340003967285,1202,"1","E","Europe/Berlin","airport","OurAirports"
"771",787,"Lechfeld Airport","Lechfeld","Germany","\N","ETSL",48.1855010986328,10.8612003326416,1822,"1","E","Europe/Berlin","airport","OurAirports"
"772",788,"Neuburg AFB","Neuburg","Germany","\N","ETSN",48.710999,11.2115,1249,"1","E","Europe/Berlin","airport","OurAirports"
"773",789,"Gütersloh Air Base","Guetersloh","Germany","GUT","ETUO",51.922798,8.30633,236,"1","E","Europe/Berlin","airport","OurAirports"
"3756",3986,"Memmingen Allgau Airport","Memmingen","Germany","FMM","EDJA",47.9888000488,10.2395000458,2077,"1","E","Europe/Berlin","airport","OurAirports"
"3912",4165,"Aachen-Merzbrück Airport","Aachen","Germany","AAH","EDKA",50.823055267334,6.18638896942139,623,"1","E","Europe/Berlin","airport","OurAirports"
"3913",4166,"Karlsruhe Baden-Baden Airport","Karlsruhe/Baden-Baden","Germany","FKB","EDSB",48.7793998718,8.08049964905,408,"1","E","Europe/Berlin","airport","OurAirports"
"3942",4198,"Weeze Airport","Weeze","Germany","NRN","EDLV",51.6024017334,6.14216995239,106,"1","E","Europe/Berlin","airport","OurAirports"
"3950",4207,"Norden-Norddeich Airport","Norden","Germany","NOE","EDWS",53.6330566406,7.19027805328,3,"1","E","Europe/Berlin","airport","OurAirports"
"3951",4208,"Juist Airport","Juist","Germany","JUI","EDWJ",53.6811103820801,7.055832862854,7,"1","E","Europe/Berlin","airport","OurAirports"
"4239",5557,"Heringsdorf Airport","Heringsdorf","Germany","HDF","EDAH",53.8787002563,14.152299881,93,"1","E","Europe/Berlin","airport","OurAirports"
"4240",5558,"Heide-Büsum Airport","Büsum","Germany","HEI","EDXB",54.1533317566,8.90166664124,7,"1","E","Europe/Berlin","airport","OurAirports"
"4241",5559,"Helgoland-Düne Airport","Helgoland","Germany","HGL","EDXH",54.1852798462,7.91583299637,8,"1","E","Europe/Berlin","airport","OurAirports"
"5025",6423,"Rügen Airport","Ruegen","Germany","GTI","EDCG",54.3833312988,13.3255558014,69,"1","U","Europe/Berlin","airport","OurAirports"
"5038",6450,"Tannheim Airport","Tannheim","Germany","\N","EDMT",48.0099983215,10.098610878,1903,"1","E","Europe/Berlin","airport","OurAirports"
"5056",6489,"Bienenfarm Airport","Nauen","Germany","\N","EDOI",52.6616668701172,12.7458333969116,131,"1","E","Europe/Berlin","airport","OurAirports"
"5068",6522,"Uetersen/Heist Airport","Uetersen","Germany","\N","EDHE",53.6463890075684,9.70416736602783,23,"1","E","Europe/Berlin","airport","OurAirports"
"5150",6798,"Weser-Wümme Airport","Hellwege","Germany","\N","EDWM",53.0538902282715,9.20861053466797,59,"1","E","Europe/Berlin","airport","OurAirports"
"5167",6830,"Flugplatz Finsterwalde/Heinrichsruh","Finsterwalde","Germany","\N","EDAS",51.634445,13.675556,384,"1","E","Europe/Berlin","airport","OurAirports"
"5174",6840,"Dinslaken/Schwarze Heide Airport","Dinslaken","Germany","\N","EDLD",51.616112,6.865278,217,"1","E","Europe/Berlin","airport","OurAirports"
"5175",6841,"Höxter-Holzminden Airport","Hoexter Holzminden","Germany","\N","EDVI",51.8066673278809,9.37833309173584,1263,"1","E","Europe/Berlin","airport","OurAirports"
"5209",6910,"Harle Airport","Harlesiel","Germany","\N","EDXP",53.7066688537598,7.82027816772461,7,"1","E","Europe/Berlin","airport","OurAirports"
"5210",6911,"Wangerooge Airport","Wangerooge","Germany","AGE","EDWG",53.7827796936035,7.91388893127441,7,"1","E","Europe/Berlin","airport","OurAirports"
"5253",6975,"Langeoog Airport","Langeoog","Germany","LGO","EDWL",53.7425003051758,7.49777793884277,7,"1","E","Europe/Berlin","airport","OurAirports"
"5296",7047,"Whiting Field Naval Air Station South Airport","Cuxhaven","Germany","NDZ","KNDZ",53.767312,8.658202,177,"-6","E","Europe/Berlin","airport","OurAirports"
"5363",7134,"Nabern/Teck Airport","Kirchheim-Teck","Germany","\N","EDTN",48.61277771,9.47722244263,1214,"1","E","Europe/Berlin","airport","OurAirports"
"5606",7538,"Würzburg-Schenkenturm Airport","Wuerzburg","Germany","\N","EDFW",49.8177795410156,9.89750003814697,991,"1","E","Europe/Berlin","airport","OurAirports"
"5608",7544,"Hopsten Air Base","Hopsten","Germany","\N","ETNP",52.3386993408203,7.54132986068726,423,"1","E","Europe/Berlin","airport","OurAirports"
"5720",7726,"Linkenheim Airport","Linkenheim","Germany","\N","EDRI",49.1416664123535,8.39472198486328,325,"1","E","Europe/Berlin","airport","OurAirports"
"5740",7787,"Engels heliport","Ebenhofen","Germany","EBE","EBEN",47.824,10.623,33,"1","E","Europe/Brussels","airport","OurAirports"
"5741",7800,"Skå-Edeby Airport","Essen","Germany","ESX","ESSE",51.455616,7.011018,0,"1","E","Europe/Berlin","airport","OurAirports"
"5776",7855,"Roitzschjora Airport","Roitzschjora","Germany","\N","EDAW",51.5777778625488,12.4944438934326,289,"1","U","Europe/Berlin","airport","OurAirports"
"5797",7893,"Nannhausen Airport","Nannhausen","Germany","\N","EDRN",49.9702796936,7.47916698456,1224,"1","E","Europe/Berlin","airport","OurAirports"
"5800",7903,"Marl-Loemühle Airport","Recklinghausen","Germany","\N","EDLM",51.647202,7.16333,240,"1","U","Europe/Berlin","airport","OurAirports"
"5802",7905,"Lahr Airport","Lahr","Germany","LHA","EDTL",48.3693008423,7.82772016525,511,"1","E","Europe/Berlin","airport","OurAirports"
"5811",7918,"Regensburg-Oberhub Airport","Regensburg","Germany","\N","EDNR",49.1419448852539,12.0819444656372,1299,"1","E","Europe/Berlin","airport","OurAirports"
"5819",7933,"Cochstedt Airport","Cochstedt","Germany","CSO","EDBC",51.8563995361,11.42029953,594,"1","E","Europe/Berlin","airport","OurAirports"
"5847",8006,"Landshut Airport","Landshut","Germany","\N","EDML",48.5116653442383,12.033332824707,1312,"1","E","Europe/Berlin","airport","OurAirports"
"5848",8007,"Itzehoe/Hungriger Wolf Airport","Itzehoe","Germany","\N","EDHF",53.9944458007812,9.57861137390137,89,"1","E","Europe/Berlin","airport","OurAirports"
"5855",8035,"Allstedt Airport","Allstedt","Germany","\N","EDBT",51.3805541992188,11.4466667175293,932,"1","E","Europe/Berlin","airport","OurAirports"
"5857",8039,"Peine-Eddesse Airport","Peine","Germany","\N","EDVP",52.4025001526,10.2288894653,249,"1","E","Europe/Berlin","airport","OurAirports"
"5864",8054,"Spremberg-Welzow Airport","Welzow","Germany","\N","EDCY",51.5755577087402,14.1369438171387,374,"1","E","Europe/Berlin","airport","OurAirports"
"5877",8085,"Rotenburg (Wümme) Airport","Rotenburg Wuemme","Germany","\N","EDXQ",53.1283340454102,9.34861087799072,98,"1","E","Europe/Berlin","airport","OurAirports"
"5878",8086,"Wipperfürth-Neye Airport","Wipperfuerth","Germany","\N","EDKN",51.1241683959961,7.37361097335815,863,"1","E","Europe/Berlin","airport","OurAirports"
"5879",8087,"Osnabrück-Atterheide Airport","Osnabrueck","Germany","\N","EDWO",52.2863883972168,7.96972179412842,285,"1","E","Europe/Berlin","airport","OurAirports"
"5880",8088,"Flugplatz Ballenstedt","Ballenstedt","Germany","\N","EDCB",51.745834,11.229722,535,"1","E","Europe/Berlin","airport","OurAirports"
"5881",8089,"Hartenholm Airport","Hasenmoor","Germany","\N","EDHM",53.9150009155273,10.0355558395386,108,"1","E","Europe/Berlin","airport","OurAirports"
"5882",8090,"Ganderkesee Atlas Airfield Airport","Ganderkesee","Germany","\N","EDWQ",53.0361099243164,8.50555610656738,95,"1","E","Europe/Berlin","airport","OurAirports"
"5883",8091,"Nienburg-Holzbalge Airport","Nienburg Weser","Germany","\N","EDXI",52.7097206115723,9.16250038146973,82,"1","E","Europe/Berlin","airport","OurAirports"
"5884",8092,"Damme Airport","Damme","Germany","\N","EDWC",52.4874992370605,8.18555641174316,151,"1","E","Europe/Berlin","airport","OurAirports"
"5885",8093,"Borkenberge Airport","Duelmen","Germany","\N","EDLB",51.7799987793,7.28805589676,157,"1","E","Europe/Berlin","airport","OurAirports"
"5886",8094,"Obermehler-Schlotheim Airport","Obermehler","Germany","\N","EDCO",51.2677764892578,10.6347217559814,909,"1","E","Europe/Berlin","airport","OurAirports"
"5887",8095,"Hodenhagen Airport","Hodenhagen","Germany","\N","EDVH",52.7611122131348,9.60555553436279,79,"1","E","Europe/Berlin","airport","OurAirports"
"5888",8096,"Grube Airport","Grube","Germany","\N","EDHB",54.2444458007812,11.0247220993042,7,"1","E","Europe/Berlin","airport","OurAirports"
"5890",8098,"Celle-Arloh Airport","Celle","Germany","\N","EDVC",52.6872215270996,10.1113891601562,207,"1","E","Europe/Berlin","airport","OurAirports"
"5891",8099,"Uelzen Airport","Uelzen","Germany","\N","EDVU",52.9838905334,10.4650001526,246,"1","E","Europe/Berlin","airport","OurAirports"
"5892",8100,"Hamm-Lippewiesen Airport","Hamm","Germany","\N","EDLH",51.6897201538086,7.81611108779907,190,"1","E","Europe/Berlin","airport","OurAirports"
"5893",8101,"Lüsse Airport","Luesse","Germany","\N","EDOJ",52.1411094665527,12.664722442627,217,"1","E","Europe/Berlin","airport","OurAirports"
"5894",8102,"Porta Westfalica Airport","Bad Oeynhausen","Germany","\N","EDVY",52.220832824707,8.85916709899902,148,"1","E","Europe/Berlin","airport","OurAirports"
"5895",8103,"Brilon/Hochsauerlandkreis Airport","Brilon","Germany","\N","EDKO",51.4025001525879,8.64166736602783,1509,"1","E","Europe/Berlin","airport","OurAirports"
"5896",8104,"Hameln-Pyrmont Airport","Bad Pyrmont","Germany","\N","EDVW",51.966667175293,9.29166698455811,1178,"1","E","Europe/Berlin","airport","OurAirports"
"5897",8105,"Nordholz-Spieka Airfield","Cuxhaven","Germany","\N","EDXN",53.767223,8.643611,72,"1","E","Europe/Berlin","airport","OurAirports"
"5898",8106,"Köthen Airport","Koethen","Germany","\N","EDCK",51.7211112976,11.9527778625,305,"1","E","Europe/Berlin","airport","OurAirports"
"5899",8107,"St. Michaelisdonn Airport","Sankt Michaelisdonn","Germany","\N","EDXM",53.9780578613281,9.14472198486328,125,"1","E","Europe/Berlin","airport","OurAirports"
"5900",8108,"Salzgitter-Drütte Airport","Salzgitter","Germany","\N","EDVS",52.1544456481934,10.4266672134399,328,"1","E","Europe/Berlin","airport","OurAirports"
"5901",8109,"Karlshöfen Airport","Karlshoefen","Germany","\N","EDWK",53.3327789306641,9.02833271026611,20,"1","E","Europe/Berlin","airport","OurAirports"
"5902",8110,"Oldenburg-Hatten Airport","Oldenburg","Germany","\N","EDWH",53.0688896179199,8.31361103057861,26,"1","E","Europe/Berlin","airport","OurAirports"
"5903",8111,"Rinteln Airport","Rinteln","Germany","\N","EDVR",52.1752777099609,9.0533332824707,180,"1","E","Europe/Berlin","airport","OurAirports"
"5904",8112,"Münster-Telgte Airport","Muenster","Germany","\N","EDLT",51.9444427490234,7.77388906478882,177,"1","E","Europe/Berlin","airport","OurAirports"
"5905",8113,"St. Peter-Ording Airport","Sankt Peter-Ording","Germany","PSH","EDXO",54.3088874816895,8.68694400787354,7,"1","E","Europe/Berlin","airport","OurAirports"
"5906",8114,"Lüchow-Rehbeck Airport","Luechow","Germany","\N","EDHC",53.0161094665527,11.1444444656372,49,"1","E","Europe/Berlin","airport","OurAirports"
"5907",8115,"Klietz/Scharlibbe Airport","Scharlibbe","Germany","\N","EDCL",52.7094421386719,12.0733327865601,95,"1","E","Europe/Berlin","airport","OurAirports"
"5908",8116,"Burg Airport","Burg","Germany","\N","EDBG",52.2416687011719,11.8561105728149,174,"1","E","Europe/Berlin","airport","OurAirports"
"5911",8119,"Bad Neuenahr-Ahrweiler Airport","Bad Neuenahr","Germany","\N","EDRA",50.5577774047852,7.13638877868652,673,"1","E","Europe/Berlin","airport","OurAirports"
"5912",8120,"Bad Dürkheim Airport","Bad Duerkheim","Germany","\N","EDRF",49.4730567932129,8.19638919830322,351,"1","E","Europe/Berlin","airport","OurAirports"
"5916",8124,"Leverkusen Airport","Leverkusen","Germany","\N","EDKL",51.0152778625488,7.00555610656738,157,"1","E","Europe/Berlin","airport","OurAirports"
"5917",8126,"Wershofen/Eifel Airport","Wershofen","Germany","\N","EDRV",50.4513893127441,6.78333282470703,1581,"1","E","Europe/Berlin","airport","OurAirports"
"6092",8432,"Gera-Leumnitz Airport","Gera","Germany","\N","EDAJ",50.8816680908203,12.1358327865601,1014,"1","E","Europe/Berlin","airport","OurAirports"
"6098",8459,"Oerlinghausen Airport","TELGTE","Germany","\N","EDLO",51.9322204589844,8.66166687011719,558,"1","E","Europe/Berlin","airport","OurAirports"
"6118",8500,"Fuerstenwalde Airport","Furstenwalde","Germany","\N","EDAL",52.3905982971,14.0972003937,184,"1","E","Europe/Berlin","airport","OurAirports"
"6119",8501,"Eberswalde-Finow Airport","Eberswalde","Germany","\N","EDAV",52.827220916748,13.6936111450195,121,"1","E","Europe/Berlin","airport","OurAirports"
"6157",8603,"Saarmund Airport","Saarmund","Germany","\N","EDCS",52.3083343505859,13.1005563735962,174,"1","E","Europe/Berlin","airport","OurAirports"
"6172",8620,"Karlsruhe-Forchheim Airport","Karlsruhe","Germany","\N","EDTK",48.9843,8.3355,381,"1","E","Europe/Berlin","airport","OurAirports"
"6173",8621,"Weinheim/Bergstraße Airport","Weinheim","Germany","\N","EDGZ",49.5675010681152,8.61055564880371,318,"1","E","Europe/Berlin","airport","OurAirports"
"6204",8671,"Grefrath-Niershorst Airport","Grefrath","Germany","\N","EDLF",51.3338890075684,6.35944414138794,105,"1","E","Europe/Berlin","airport","OurAirports"
"6209",8689,"Segeletz Airport","Segeletz","Germany","\N","EDAI",52.8266677856445,12.5419435501099,141,"1","E","Europe/Berlin","airport","OurAirports"
"6244",8750,"Peenemünde Airport","Peenemunde","Germany","PEF","EDCP",54.1577796936,13.7744436264,7,"1","E","Europe/Berlin","airport","OurAirports"
"6298",8855,"Neustadt-Glewe Airport","Neustadt-Glewe","Germany","\N","EDAN",53.3597221374512,11.6152782440186,115,"1","E","Europe/Berlin","airport","OurAirports"
"6300",8860,"Tutow Airport","Wildenrath","Germany","\N","EDUW",53.9219436645508,13.2188892364502,26,"1","E","Europe/Berlin","airport","OurAirports"
"6301",8861,"Bremgarten Airport","Bremgarten","Germany","\N","EDTG",47.9027786255,7.6177778244,696,"1","E","Europe/Berlin","airport","OurAirports"
"6302",8862,"Bitburg Airport","Birburg","Germany","BBJ","EDRB",49.945278,6.565,1220,"1","U","Europe/Berlin","airport","OurAirports"
"6380",9079,"Thalmässing-Waizenhofen Airport","Thalmaessing","Germany","\N","EDPW",49.0641670227051,11.2091665267944,1893,"1","E","Europe/Berlin","airport","OurAirports"
"6388",9100,"Ansbach-Petersdorf Airport","Ansbach","Germany","\N","EDQF",49.361111,10.669444,1371,"1","E","Europe/Berlin","airport","OurAirports"
"6403",9137,"Oberschleißheim Airfield","Schleissheim","Germany","\N","EDNX",48.2394447327,11.5613889694,1594,"1","E","Europe/Berlin","airport","OurAirports"
"6407",9141,"Verden-Scharnhorst Airport","Verden","Germany","\N","EDWV",52.9652786254883,9.28277778625488,144,"1","E","Europe/Berlin","airport","OurAirports"
"6408",9147,"Nittenau-Bruck Airport","Nittenau","Germany","\N","EDNM",49.2224998474121,12.296667098999,1161,"1","E","Europe/Berlin","airport","OurAirports"
"6439",9232,"Neumünster Airport","Neumuenster","Germany","EUM","EDHN",54.0794448852539,9.9413890838623,72,"1","E","Europe/Berlin","airport","OurAirports"
"6474",9380,"Pellworm Field","Pellworm","Germany","\N","EDHP",54.5363883972,8.68000030518,3,"1","E","Europe/Berlin","airport","OurAirports"
"6689",10723,"Elsenthal Grafe Airport","Elsenthal","Germany","\N","EDNF",48.8224983215332,13.3675003051758,1417,"1","E","\N","airport","OurAirports"
"6699",10776,"Meschede-Schüren Airport","Meschede","Germany","\N","EDKM",51.3027763366699,8.23916721343994,1434,"1","E","\N","airport","OurAirports"
"6725",11032,"Stade Airport","Stade","Germany","\N","EDHS",53.5611114501953,9.49916744232178,62,"1","E","\N","airport","OurAirports"
"6772",11132,"Gießen-Lützellinden Airport","Giessen","Germany","\N","EDFL",50.543888092041,8.59027767181396,755,"1","E","\N","airport","OurAirports"
"6862",11718,"Gelnhausen Airport","Gelnhausen","Germany","\N","EDFG",50.1972236633301,9.17000007629395,446,"1","E","\N","airport","OurAirports"
"6864",11720,"Lauterbach Airport","Lauterbach-Wernges","Germany","\N","EDFT",50.6833343505859,9.41083335876465,1211,"1","E","\N","airport","OurAirports"
"6865",11721,"Aschaffenburg Airport","Aschaffenburg","Germany","\N","EDFC",49.9388885498047,9.06388854980469,410,"1","E","\N","airport","OurAirports"
"6867",11735,"Reichelsheim Airport","Reichelsheim","Germany","\N","EDFB",50.3358345031738,8.87805557250977,397,"1","E","\N","airport","OurAirports"
"6868",11737,"Marburg-Schönstadt Airport","Schoenstadt","Germany","\N","EDFN",50.8744430541992,8.8149995803833,833,"1","E","\N","airport","OurAirports"
"6869",11738,"Lauenbrück Airport","Lauenbrueck","Germany","\N","EDHU",53.2075004577637,9.57333278656006,98,"1","E","\N","airport","OurAirports"
"6870",11739,"Hüttenbusch Airport","Huettenbusch","Germany","\N","EDXU",53.2866668701172,8.94722175598145,10,"1","E","\N","airport","OurAirports"
"6914",11785,"Neubrandenburg Airport","Neubrandenburg","Germany","FNB","EDBN",53.6022,13.306,228,"\N","\N","\N","airport","OurAirports"
"6915",11786,"Airport Bamberg-Breitenau","Bamberg","Germany","\N","EDQA",49.920403,10.914233,811,"\N","\N","\N","airport","OurAirports"
"6916",11787,"Zerbst Airport","Zerbst/Anhalt","Germany","\N","EDUZ",52.0008316040039,12.1486110687256,289,"\N","\N","\N","airport","OurAirports"
